[{"Name":"Jefferson National Expansion Memorial","Code":"JEFF","long":-90.18595301180287,"lat":38.62254009262406},{"Name":"National Park of American Samoa","Code":"NPSA","long":-169.45380760526996,"lat":-14.239727732693918},{"Name":"Virgin Islands National Park","Code":"VIIS","long":-64.77111048899694,"lat":18.353798617233704},{"Name":"Hot Springs National Park","Code":"HOSP","long":-93.08972185108273,"lat":34.51113822506357},{"Name":"Indiana Dunes National Lakeshore","Code":"INDU","long":-87.03241529098068,"lat":41.661457848148025},{"Name":"Acadia National Park","Code":"ACAD","long":-68.24411197733804,"lat":44.350751388328206},{"Name":"Haleakala National Park","Code":"HALE","long":-156.14709314319208,"lat":20.704512129332194},{"Name":"New River Gorge National River","Code":"NERI","long":-80.9897043635666,"lat":37.84026693367752},{"Name":"Congaree National Park","Code":"CONG","long":-80.81835232616444,"lat":33.8062043146765},{"Name":"Black Canyon Of The Gunnison National Park","Code":"BLCA","long":-107.72398016641485,"lat":38.577392252894334},{"Name":"Cuyahoga Valley National Park","Code":"CUVA","long":-81.5690344075238,"lat":41.26071335500069},{"Name":"Carlsbad Caverns National Park","Code":"CAVE","long":-104.52776563457927,"lat":32.15234275399143},{"Name":"Hawaii Volcanoes National Park","Code":"HAVO","long":-155.2118228719388,"lat":19.32614215615518},{"Name":"Mammoth Cave National Park","Code":"MACA","long":-86.13090198191068,"lat":37.197604576779035},{"Name":"Pinnacles National Monument","Code":"PINN","long":-121.18110088326603,"lat":36.4901310064952},{"Name":"Crater Lake National Park","Code":"CRLA","long":-122.13525870459277,"lat":42.94443605194011},{"Name":"Everglades National Park","Code":"EVER","long":-80.95349638622787,"lat":25.27225616404826},{"Name":"Grand Canyon National Park","Code":"GRCA","long":-112.19586332050201,"lat":36.186683141213514},{"Name":"Great Smoky Mountains National Park","Code":"GRSM","long":-83.77104780772574,"lat":35.53381126341195},{"Name":"Isle Royale National Park","Code":"ISRO","long":-89.10441847731086,"lat":47.900839582369585},{"Name":"Mount Rainier National Park","Code":"MORA","long":-121.70574507946985,"lat":46.86055919903173},{"Name":"North Cascades National Park","Code":"NOCA","long":-121.34755778363238,"lat":48.83303940981537},{"Name":"Olympic National Park","Code":"OLYM","long":-123.6194451629227,"lat":47.79453520449651},{"Name":"Rocky Mountain National Park","Code":"ROMO","long":-105.69838532231373,"lat":40.35579839722149},{"Name":"Saguaro National Park","Code":"SAGU","long":-110.60831406159426,"lat":32.178836085393556},{"Name":"Shenandoah National Park","Code":"SHEN","long":-78.67619962877342,"lat":38.28108210674896},{"Name":"Glacier National Park","Code":"GLAC","long":-113.80079159548487,"lat":48.68426876066877},{"Name":"Arches National Park","Code":"ARCH","long":-109.59545602760868,"lat":38.707917632251544},{"Name":"Voyageurs National Park","Code":"VOYA","long":-92.98057129969759,"lat":48.51716932219992},{"Name":"Theodore Roosevelt National Park","Code":"THRO","long":-103.45925080636415,"lat":46.953620966658086},{"Name":"Dry Tortugas National Park","Code":"DRTO","long":-82.86655423155601,"lat":24.654395618647623},{"Name":"White Sands National Monument","Code":"WHSA","long":-106.33507223593554,"lat":32.779133376019175},{"Name":"Bryce Canyon National Park","Code":"BRCA","long":-112.18266888744083,"lat":37.58399143875251},{"Name":"Yellowstone National Park","Code":"YELL","long":-110.49008302275851,"lat":44.583032217213656},{"Name":"Grand Teton National Park","Code":"GRTE","long":-110.70546656038158,"lat":43.81853565368195},{"Name":"Badlands National Park","Code":"BADL","long":-102.39394509554067,"lat":43.8340624087368},{"Name":"Zion National Park","Code":"ZION","long":-112.95443162869537,"lat":37.255709497131065},{"Name":"Mesa Verde National Park","Code":"MEVE","long":-108.50092888589481,"lat":37.22351315320654},{"Name":"Great Basin National Park","Code":"GRBA","long":-114.25797817448695,"lat":38.946173783127065},{"Name":"Capitol Reef National Park","Code":"CARE","long":-111.00329294577273,"lat":37.795992535017426},{"Name":"Canyonlands National Park","Code":"CANY","long":-109.88314625527481,"lat":38.272072876214835},{"Name":"Great Sand Dunes National Park & Preserve","Code":"GRSA","long":-105.57832630519154,"lat":37.759942701007226},{"Name":"Lassen Volcanic National Park","Code":"LAVO","long":-121.41212664904383,"lat":40.48622026090819},{"Name":"Petrified Forest National Park","Code":"PEFO","long":-109.67471774572405,"lat":34.98868180401879},{"Name":"Biscayne National Park","Code":"BISC","long":-80.21830159269447,"lat":25.469689246647114},{"Name":"Guadalupe Mountains National Park","Code":"GUMO","long":-104.88434717034703,"lat":31.923384209391674},{"Name":"Wind Cave National Park","Code":"WICA","long":-103.42877641689412,"lat":43.60787178123641},{"Name":"Big Bend National Park","Code":"BIBE","long":-103.22978967302261,"lat":29.298177668897967},{"Name":"Death Valley National Park","Code":"DEVA","long":-117.13511154435771,"lat":36.48741910067162},{"Name":"Redwood National and State Parks","Code":"REDW","long":-124.00482968014182,"lat":41.27702956462916},{"Name":"Yosemite National Park","Code":"YOSE","long":-119.55600729459782,"lat":37.84893656911814},{"Name":"Kings Canyon National Park","Code":"KICA","long":-118.59384064032848,"lat":36.8749421087923},{"Name":"Joshua Tree National Park","Code":"JOTR","long":-116.15907084356105,"lat":33.98096522850808},{"Name":"Channel Islands National Park","Code":"CHIS","long":-119.7251698451474,"lat":34.00392978229205},{"Name":"Denali National Park & Preserve","Code":"DENA","long":-151.05263550282112,"lat":63.29777436004586},{"Name":"Gates Of The Arctic National Park & Preserve","Code":"GAAR","long":-153.26413231698794,"lat":67.9192854407937},{"Name":"Glacier Bay National Park & Preserve","Code":"GLBA","long":-136.84071732838277,"lat":58.80086474447531},{"Name":"Katmai National Park & Preserve","Code":"KATM","long":-155.01341050350874,"lat":58.622573966764584},{"Name":"Kenai Fjords National Park","Code":"KEFJ","long":-149.88152448868524,"lat":59.95389688763184},{"Name":"Kobuk Valley National Park","Code":"KOVA","long":-159.06308334658615,"lat":67.28263652770183},{"Name":"Lake Clark National Park & Preserve","Code":"LACL","long":-153.6018441528228,"lat":60.64679690935658},{"Name":"Wrangell - St Elias National Park & Preserve","Code":"WRST","long":-142.60357111369407,"lat":61.41843937955613},{"Name":"Sequoia NP","Code":"SEQU","long":-118.5658,"lat":36.4864}]